{
  "data": [
    {
      "lat": 46.852429,
      "lng": 9.53164,
      "title": "Alexanderstrasse 2",
      "subtitle": "Glas, Büchsen, Dosen",
      "url": "https://goo.gl/maps/TSrfUfGmtYTVgT1F6"
    },
    {
      "lat": 46.833572,
      "lng": 9.542038,
      "title": "Araschgerstrasse 57",
      "subtitle": "Glas, Büchsen, Dosen, Batterien",
      "url": "https://goo.gl/maps/FGpCpFWAuUCMXD839"
    },
    {
      "lat": 46.847783,
      "lng": 9.531841,
      "title": "Arcas / Churerhofplatz",
      "subtitle": "Glas, Büchsen, Dosen, Batterien",
      "url": "https://goo.gl/maps/rHpZDHrFnWJkHoFq9"
    },
    {
      "lat": 46.862178,
      "lng": 9.518348,
      "title": "Arellastrasse",
      "subtitle": "Glas, Büchsen, Dosen, Batterien",
      "url": "https://goo.gl/maps/ZAdFKAaLnyBSTnF56"
    },
    {
      "lat": 46.86199,
      "lng": 9.513002,
      "title": "Austrasse / Rheinstrasse",
      "subtitle": "Glas, Büchsen, Dosen, Batterien",
      "url": "https://goo.gl/maps/8dFixwQX22vVzhz56"
    },
    {
      "lat": 46.85287,
      "lng": 9.528379,
      "title": "Bahnhofplatz / Tivolistrasse",
      "subtitle": "Glas, Büchsen, Dosen, Batterien",
      "url": "https://goo.gl/maps/TKkRtCJyReK3C16B7"
    },
    {
      "lat": 46.860953,
      "lng": 9.526633,
      "title": "Belmontstrasse / Tittwiesenstrasse",
      "subtitle": "Glas, Büchsen, Dosen, Batterien",
      "url": "https://goo.gl/maps/avUZssvDmrCRk9LQA"
    },
    {
      "lat": 46.858694,
      "lng": 9.544805,
      "title": "Bondastrasse / Plantaweg",
      "subtitle": "Glas, Büchsen, Dosen, Batterien",
      "url": "https://goo.gl/maps/3gr7XJrvzyKdbxJ17"
    },
    {
      "lat": 46.872966,
      "lng": 9.53839,
      "title": "Cadonaustrasse Kehrplatz",
      "subtitle": "Glas",
      "url": "https://goo.gl/maps/mVJnERLcFDWMbDx8A"
    },
    {
      "lat": 46.861934,
      "lng": 9.507322,
      "title": "Felsenaustrasse / Camping",
      "subtitle": "Glas, Büchsen, Dosen, Batterien",
      "url": "https://goo.gl/maps/4trjrR5iYiEvbARC6"
    },
    {
      "lat": 46.845792,
      "lng": 9.514459,
      "title": "Freifeldstrasse 27",
      "subtitle": "Glas, Büchsen, Dosen, Batterien",
      "url": "https://goo.gl/maps/J1Bf72iBBvhu5fEx9"
    },
    {
      "lat": 46.859524,
      "lng": 9.515524,
      "title": "Giacomettistrasse / Rheinstrasse",
      "subtitle": "Glas, Büchsen, Dosen, Batterien",
      "url": "https://goo.gl/maps/FfBUVctgZFc5DnYT6"
    },
    {
      "lat": 46.863645,
      "lng": 9.527472,
      "title": "Giacomettistrasse 75",
      "subtitle": "Glas, Büchsen, Dosen, Batterien",
      "url": "https://goo.gl/maps/qWoYfCuhJbZdS9NcA"
    },
    {
      "lat": 46.849406,
      "lng": 9.530559,
      "title": "Grabenstrasse / Fontanaplatz",
      "subtitle": "Glas, Büchsen, Dosen, Batterien",
      "url": "https://goo.gl/maps/LdWgyyuBr3JWVQ5E8"
    },
    {
      "lat": 46.851078,
      "lng": 9.52737,
      "title": "Gäuggelistrasse / Gürtelstrasse Migros",
      "subtitle": "Glas, Büchsen, Dosen, Batterien",
      "url": "https://goo.gl/maps/1ax7yTm8LvFbUVP69"
    },
    {
      "lat": 46.855828,
      "lng": 9.530621,
      "title": "Gürtelstrasse 72",
      "subtitle": "Glas, Büchsen, Dosen, Batterien",
      "url": "https://goo.gl/maps/xjXnEDHVmepCA8Kj6"
    },
    {
      "lat": 46.846899,
      "lng": 9.520638,
      "title": "Kasernenstrasse / Kornquaderweg",
      "subtitle": "Glas, Büchsen, Dosen, Batterien",
      "url": "https://goo.gl/maps/BZVgQo1Yi2wDTvJo6"
    },
    {
      "lat": 46.8436,
      "lng": 9.540289,
      "title": "Kupferschmiedeweg / Seidengut",
      "subtitle": "Glas, Büchsen, Dosen, Batterien",
      "url": "https://goo.gl/maps/GWyjszZrwHhZBA6n9"
    },
    {
      "lat": 46.857454,
      "lng": 9.520396,
      "title": "Kurfirstenstrasse / Ringstrasse",
      "subtitle": "Glas, Büchsen, Dosen, Batterien",
      "url": "https://goo.gl/maps/xontu49Ew44dxyL56"
    },
    {
      "lat": 46.856096,
      "lng": 9.538373,
      "title": "Loëstrasse / Madrisaweg",
      "subtitle": "Glas, Büchsen, Dosen, Batterien",
      "url": "https://goo.gl/maps/cCcT53XmqZ3keC4X6"
    },
    {
      "lat": 46.858691,
      "lng": 9.539629,
      "title": "Lürlibadstrasse / Lochertstrasse",
      "subtitle": "Glas, Büchsen, Dosen, Batterien",
      "url": "https://goo.gl/maps/CKKC5pvJdVLprnuj7"
    },
    {
      "lat": 46.870535,
      "lng": 9.534077,
      "title": "Masanserstrasse / Kronengasse",
      "subtitle": "Glas, Büchsen, Dosen, Batterien",
      "url": "https://goo.gl/maps/UeSAQNPJMeG8d8R98"
    },
    {
      "lat": 46.83472,
      "lng": 9.546251,
      "title": "Meiersboden 1",
      "subtitle": "Glas, Büchsen, Dosen, Batterien",
      "url": "https://goo.gl/maps/SVd3otVoshsyQidMA"
    },
    {
      "lat": 46.855773,
      "lng": 9.510695,
      "title": "Multisammelstelle Industriestrasse 14",
      "subtitle": "Alles anlieferbar",
      "url": "https://goo.gl/maps/qQfftzd7jeFQSWAn7"
    },
    {
      "lat": 46.854421,
      "lng": 9.521941,
      "title": "Oberalpstrasse / Rheinstrasse",
      "subtitle": "Glas, Büchsen, Dosen, Batterien",
      "url": "https://goo.gl/maps/P6hnG39RAtH6evvZ7"
    },
    {
      "lat": 46.853426,
      "lng": 9.532575,
      "title": "Ottoplatz",
      "subtitle": "Glas, Büchsen, Dosen, Batterien",
      "url": "https://goo.gl/maps/TDCEGdwoWKT6oY4D9"
    },
    {
      "lat": 46.852698,
      "lng": 9.514716,
      "title": "Pulvermühlestrasse 46",
      "subtitle": "Glas, Büchsen, Dosen, Batterien",
      "url": "https://goo.gl/maps/TmsNxPUVNHRZy86e8"
    },
    {
      "lat": 46.849803,
      "lng": 9.533304,
      "title": "Reichsgasse Karlihof",
      "subtitle": "Glas, Büchsen, Dosen, Batterien",
      "url": "https://goo.gl/maps/VKuoWBJGygT7Q1Bo8"
    },
    {
      "lat": 46.860425,
      "lng": 9.533822,
      "title": "Ringstrasse Roterturm Denner",
      "subtitle": "Glas, Büchsen, Dosen, Batterien",
      "url": "https://goo.gl/maps/iowSAmENCvocmgdR9"
    },
    {
      "lat": 46.863432,
      "lng": 9.532505,
      "title": "Saluferstrasse / Giacomettistrasse",
      "subtitle": "Glas, Büchsen, Dosen, Batterien",
      "url": "https://goo.gl/maps/yq2o7YTvvtwmzBmE9"
    },
    {
      "lat": 46.855921,
      "lng": 9.524637,
      "title": "Scalettastrasse Gewerbeschulhaus",
      "subtitle": "Glas, Büchsen, Dosen, Batterien",
      "url": "https://goo.gl/maps/3HwEhLkwqMH1soCg7"
    },
    {
      "lat": 46.866561,
      "lng": 9.538575,
      "title": "Scalärastrasse 5",
      "subtitle": "Glas, Büchsen, Dosen, Batterien",
      "url": "https://goo.gl/maps/PgAk75t3kngr4ic2A"
    },
    {
      "lat": 46.858256,
      "lng": 9.53234,
      "title": "Stampastrasse / Heimstrasse",
      "subtitle": "Glas, Büchsen, Dosen, Batterien",
      "url": "https://goo.gl/maps/c8oP1bdXuAJzi6oc8"
    },
    {
      "lat": 46.875551,
      "lng": 9.534451,
      "title": "Stelleweg / Dammweg",
      "subtitle": "Glas, Büchsen, Dosen, Batterien",
      "url": "https://goo.gl/maps/kwx2gCk2RCZo7wfJA"
    },
    {
      "lat": 46.844535,
      "lng": 9.531465,
      "title": "Susenbühlstrasse Ecke Malixerstrasse",
      "subtitle": "Glas, Büchsen, Dosen, Batterien",
      "url": "https://goo.gl/maps/Mavcka6bo9eyXpoZ7"
    },
    {
      "lat": 46.848136,
      "lng": 9.527058,
      "title": "Sägenstrasse / Freihofplatz",
      "subtitle": "Glas, Büchsen, Dosen, Batterien",
      "url": "https://goo.gl/maps/QWV2dDQ74CJhK6BdA"
    },
    {
      "lat": 46.859152,
      "lng": 9.526808,
      "title": "Tittwiesenstrasse / Ringstrasse Coop",
      "subtitle": "Glas, Büchsen, Dosen, Batterien",
      "url": "https://goo.gl/maps/rggv9yA9j6v3CVjF6"
    },
    {
      "lat": 46.850716,
      "lng": 9.523003,
      "title": "Untere Plessurstrasse / Kettweg",
      "subtitle": "Glas, Büchsen, Dosen, Batterien",
      "url": "https://goo.gl/maps/jWoRUR83AuTMnkdZ9"
    },
    {
      "lat": 46.862417,
      "lng": 9.530966,
      "title": "Wiesentalstrasse 98 (Manor)",
      "subtitle": "Glas, Büchsen, Dosen, Batterien",
      "url": "https://goo.gl/maps/j8krPjHhkNZTdrXu7"
    }
  ]
}

